[{"id":8,"name":"Pojilo","natural_source":true,"geolocation_latitude":45.938071,"geolocation_longitude":16.045869,"geolocation_altitude":291.70,"year_of_opening":null,"maintainers":[{"id":2,"name":"Hrvatske vode","street":"Ulica Grada Vukovara 220","city":"Zagreb","province":"Grad Zagreb","country":"Croatia"}, 
 {"id":3,"name":"Park prirode Medvednica","street":"Bliznec 70","city":"Zagreb","province":"Grad Zagreb","country":"Croatia"}]}, 
 {"id":10,"name":"Francek","natural_source":false,"geolocation_latitude":45.795965,"geolocation_longitude":15.982229,"geolocation_altitude":115.00,"year_of_opening":null,"maintainers":[{"id":1,"name":"Vodoopskrba i odvodnja d.o.o.","street":"Folnegovićeva 1","city":"Zagreb","province":"Grad Zagreb","country":"Croatia"}]}, 
 {"id":9,"name":null,"natural_source":true,"geolocation_latitude":45.842829,"geolocation_longitude":15.886123,"geolocation_altitude":327.50,"year_of_opening":null,"maintainers":[{"id":2,"name":"Hrvatske vode","street":"Ulica Grada Vukovara 220","city":"Zagreb","province":"Grad Zagreb","country":"Croatia"}, 
 {"id":3,"name":"Park prirode Medvednica","street":"Bliznec 70","city":"Zagreb","province":"Grad Zagreb","country":"Croatia"}]}, 
 {"id":7,"name":"Vidovec","natural_source":true,"geolocation_latitude":45.912108,"geolocation_longitude":15.895328,"geolocation_altitude":314.20,"year_of_opening":null,"maintainers":[{"id":2,"name":"Hrvatske vode","street":"Ulica Grada Vukovara 220","city":"Zagreb","province":"Grad Zagreb","country":"Croatia"}, 
 {"id":3,"name":"Park prirode Medvednica","street":"Bliznec 70","city":"Zagreb","province":"Grad Zagreb","country":"Croatia"}]}, 
 {"id":1,"name":"Francek","natural_source":false,"geolocation_latitude":45.820141,"geolocation_longitude":16.016171,"geolocation_altitude":125.10,"year_of_opening":2005,"maintainers":[{"id":1,"name":"Vodoopskrba i odvodnja d.o.o.","street":"Folnegovićeva 1","city":"Zagreb","province":"Grad Zagreb","country":"Croatia"}]}, 
 {"id":5,"name":"Kobiljak","natural_source":true,"geolocation_latitude":45.835316,"geolocation_longitude":15.887524,"geolocation_altitude":248.00,"year_of_opening":null,"maintainers":[{"id":2,"name":"Hrvatske vode","street":"Ulica Grada Vukovara 220","city":"Zagreb","province":"Grad Zagreb","country":"Croatia"}]}, 
 {"id":4,"name":"Francek","natural_source":false,"geolocation_latitude":45.802842,"geolocation_longitude":15.973013,"geolocation_altitude":118.30,"year_of_opening":2006,"maintainers":[{"id":1,"name":"Vodoopskrba i odvodnja d.o.o.","street":"Folnegovićeva 1","city":"Zagreb","province":"Grad Zagreb","country":"Croatia"}]}, 
 {"id":2,"name":"Francek","natural_source":false,"geolocation_latitude":45.810339,"geolocation_longitude":15.978541,"geolocation_altitude":128.00,"year_of_opening":2004,"maintainers":[{"id":1,"name":"Vodoopskrba i odvodnja d.o.o.","street":"Folnegovićeva 1","city":"Zagreb","province":"Grad Zagreb","country":"Croatia"}]}, 
 {"id":6,"name":"Raspelo","natural_source":true,"geolocation_latitude":45.866636,"geolocation_longitude":15.974636,"geolocation_altitude":305.60,"year_of_opening":null,"maintainers":[{"id":2,"name":"Hrvatske vode","street":"Ulica Grada Vukovara 220","city":"Zagreb","province":"Grad Zagreb","country":"Croatia"}, 
 {"id":3,"name":"Park prirode Medvednica","street":"Bliznec 70","city":"Zagreb","province":"Grad Zagreb","country":"Croatia"}]}, 
 {"id":3,"name":"Francek","natural_source":false,"geolocation_latitude":45.829850,"geolocation_longitude":16.027303,"geolocation_altitude":137.20,"year_of_opening":2004,"maintainers":[{"id":1,"name":"Vodoopskrba i odvodnja d.o.o.","street":"Folnegovićeva 1","city":"Zagreb","province":"Grad Zagreb","country":"Croatia"}]}]
